{"pid":"train-red-fwd","direction":"Forward","lengthFt":115565.28924340096,"points":[{"type":"W","lat":42.01907,"lon":-87.6729,"pdist":0,"seq":1},{"type":"S","stopId":"train-red-Howard","stopName":"Howard","lat":42.01906065804453,"lon":-87.67288900153284,"pdist":4.5278322980877075,"seq":2},{"type":"S","stopId":"train-red-Jarvis","stopName":"Jarvis","lat":42.016001750741935,"lon":-87.66928769004876,"pdist":1487.110287183509,"seq":3},{"type":"W","lat":42.01422,"lon":-87.66719,"pdist":2350.6841479352415,"seq":4},{"type":"W","lat":42.01356,"lon":-87.66664,"pdist":2633.87543521275,"seq":5},{"type":"W","lat":42.01298,"lon":-87.6663,"pdist":2864.665311724167,"seq":6},{"type":"W","lat":42.01228,"lon":-87.66606,"pdist":3128.189890916307,"seq":7},{"type":"S","stopId":"train-red-Morse","stopName":"Morse","lat":42.00836077730563,"lon":-87.66587980585314,"pdist":4558.806400804115,"seq":8},{"type":"W","lat":42.00619,"lon":-87.66578,"pdist":5351.195630742649,"seq":9},{"type":"W","lat":42.00526,"lon":-87.66553,"pdist":5697.173993574454,"seq":10},{"type":"W","lat":42.00467,"lon":-87.66528,"pdist":5922.830992791286,"seq":11},{"type":"W","lat":42.00382,"lon":-87.66477,"pdist":6262.346986338726,"seq":12},{"type":"W","lat":42.00309,"lon":-87.66405,"pdist":6592.530276932702,"seq":13},{"type":"W","lat":42.00265,"lon":-87.66347,"pdist":6817.227962834092,"seq":14},{"type":"W","lat":42.00137,"lon":-87.66143,"pdist":7541.0441928133705,"seq":15},{"type":"S","stopId":"train-red-Loyola","stopName":"Loyola","lat":42.00106714741872,"lon":-87.66106421701222,"pdist":7689.504966368991,"seq":16},{"type":"W","lat":42.0006,"lon":-87.6605,"pdist":7918.5043919484615,"seq":17},{"type":"W","lat":41.9997,"lon":-87.65979,"pdist":8299.099582791778,"seq":18},{"type":"W","lat":41.9985,"lon":-87.65936,"pdist":8752.131299826353,"seq":19},{"type":"W","lat":41.99633,"lon":-87.65922,"pdist":9544.684400262087,"seq":20},{"type":"S","stopId":"train-red-Granville","stopName":"Granville","lat":41.99447995146932,"lon":-87.65921304493034,"pdist":10219.60832942329,"seq":21},{"type":"W","lat":41.99367,"lon":-87.65921,"pdist":10515.090106816166,"seq":22},{"type":"S","stopId":"train-red-Thorndale","stopName":"Thorndale","lat":41.990099706594876,"lon":-87.65908495040969,"pdist":11818.019989714157,"seq":23},{"type":"S","stopId":"train-red-Bryn_Mawr","stopName":"Bryn Mawr","lat":41.983499729444866,"lon":-87.65885378609207,"pdist":14226.591633392978,"seq":24},{"type":"W","lat":41.97968,"lon":-87.65872,"pdist":15620.54979693265,"seq":25},{"type":"S","stopId":"train-red-Berwyn","stopName":"Berwyn","lat":41.97797991126411,"lon":-87.658676135318,"pdist":16240.87794224724,"seq":26},{"type":"S","stopId":"train-red-Argyle","stopName":"Argyle","lat":41.9733196255006,"lon":-87.65855589338665,"pdist":17941.322373927404,"seq":27},{"type":"S","stopId":"train-red-Lawrence","stopName":"Lawrence","lat":41.96898066614095,"lon":-87.65844394212874,"pdist":19524.521271334303,"seq":28},{"type":"W","lat":41.96689,"lon":-87.65839,"pdist":20287.363246762896,"seq":29},{"type":"S","stopId":"train-red-Wilson","stopName":"Wilson","lat":41.96547545876226,"lon":-87.6579564241417,"pdist":20816.63831715411,"seq":30},{"type":"W","lat":41.96428,"lon":-87.65759,"pdist":21263.939890036825,"seq":31},{"type":"W","lat":41.96182,"lon":-87.657,"pdist":22175.538736997187,"seq":32},{"type":"W","lat":41.95417,"lon":-87.65672,"pdist":24967.389841831246,"seq":33},{"type":"W","lat":41.95381,"lon":-87.65635,"pdist":25132.692411641776,"seq":34},{"type":"S","stopId":"train-red-Sheridan","stopName":"Sheridan","lat":41.95375812598875,"lon":-87.65466779992066,"pdist":25589.474828800816,"seq":35},{"type":"W","lat":41.95374,"lon":-87.65408,"pdist":25749.08525318947,"seq":36},{"type":"W","lat":41.95365,"lon":-87.65386,"pdist":25817.20712311195,"seq":37},{"type":"W","lat":41.95344,"lon":-87.6537,"pdist":25905.26131813629,"seq":38},{"type":"W","lat":41.95246,"lon":-87.65363,"pdist":26263.28188656996,"seq":39},{"type":"S","stopId":"train-red-Addison__Red_","stopName":"Addison (Red)","lat":41.94732,"lon":-87.65363,"pdist":28138.41942906922,"seq":40},{"type":"W","lat":41.9469,"lon":-87.65363,"pdist":28291.640784680338,"seq":41},{"type":"W","lat":41.94448,"lon":-87.65352,"pdist":29174.99204138781,"seq":42},{"type":"W","lat":41.94422,"lon":-87.65343,"pdist":29272.936733354152,"seq":43},{"type":"W","lat":41.94318,"lon":-87.65337,"pdist":29652.69115450767,"seq":44},{"type":"W","lat":41.94218,"lon":-87.65346,"pdist":30018.32042784848,"seq":45},{"type":"S","stopId":"train-red-Belmont__Red_Brown_Purple_","stopName":"Belmont (Red/Brown/Purple)","lat":41.939749743719624,"lon":-87.65339786276556,"pdist":30905.06923715161,"seq":46},{"type":"W","lat":41.93866,"lon":-87.65337,"pdist":31302.693534484963,"seq":47},{"type":"W","lat":41.92871,"lon":-87.65297,"pdist":34934.20330826003,"seq":48},{"type":"S","stopId":"train-red-Fullerton","stopName":"Fullerton","lat":41.92530008258157,"lon":-87.65286521380531,"pdist":36178.50980561094,"seq":49},{"type":"W","lat":41.91309,"lon":-87.65249,"pdist":40634.06788080845,"seq":50},{"type":"S","stopId":"train-red-North_Clybourn","stopName":"North/Clybourn","lat":41.91068907920601,"lon":-87.64914286478829,"pdist":41896.203947344264,"seq":51},{"type":"W","lat":41.90393,"lon":-87.63972,"pdist":45449.373074713316,"seq":52},{"type":"W","lat":41.9038,"lon":-87.63896,"pdist":45661.10641008405,"seq":53},{"type":"S","stopId":"train-red-Clark_Division","stopName":"Clark/Division","lat":41.90390528397794,"lon":-87.63140963472462,"pdist":47711.52540459511,"seq":54},{"type":"W","lat":41.90394,"lon":-87.62892,"pdist":48387.62439352959,"seq":55},{"type":"W","lat":41.90376,"lon":-87.62867,"pdist":48482.068492794555,"seq":56},{"type":"W","lat":41.90317,"lon":-87.62863,"pdist":48697.58185445086,"seq":57},{"type":"W","lat":41.90213,"lon":-87.62835,"pdist":49084.52936409109,"seq":58},{"type":"S","stopId":"train-red-Chicago__Red_","stopName":"Chicago (Red)","lat":41.89666998549607,"lon":-87.62818083288396,"pdist":51076.94205369559,"seq":59},{"type":"S","stopId":"train-red-Grand__Red_","stopName":"Grand (Red)","lat":41.89166989698493,"lon":-87.62802591561172,"pdist":52901.52325061193,"seq":60},{"type":"S","stopId":"train-red-Lake__Subway_","stopName":"Lake (Subway)","lat":41.884809941240505,"lon":-87.62781337424784,"pdist":55404.78818983449,"seq":61},{"type":"S","stopId":"train-red-Monroe__Red_","stopName":"Monroe (Red)","lat":41.88074022146381,"lon":-87.62768728250262,"pdist":56889.86873685202,"seq":62},{"type":"S","stopId":"train-red-Jackson__Red_","stopName":"Jackson (Red)","lat":41.87814987764636,"lon":-87.62760702612366,"pdist":57835.11052854152,"seq":63},{"type":"W","lat":41.87405,"lon":-87.62748,"pdist":59331.195977134696,"seq":64},{"type":"S","stopId":"train-red-Harrison","stopName":"Harrison","lat":41.874040000096414,"lon":-87.62747995859253,"pdist":59334.84408681537,"seq":65},{"type":"W","lat":41.86922,"lon":-87.62746,"pdist":61093.24994287772,"seq":66},{"type":"S","stopId":"train-red-Roosevelt","stopName":"Roosevelt","lat":41.8673738674106,"lon":-87.62740654056208,"pdist":61766.899233196185,"seq":67},{"type":"W","lat":41.86404,"lon":-87.62731,"pdist":62983.419340177024,"seq":68},{"type":"W","lat":41.86364,"lon":-87.6274,"pdist":63131.37890082948,"seq":69},{"type":"W","lat":41.86316,"lon":-87.62779,"pdist":63336.05151385871,"seq":70},{"type":"W","lat":41.86212,"lon":-87.62935,"pdist":63904.90106278729,"seq":71},{"type":"W","lat":41.86094,"lon":-87.63059,"pdist":64451.543016774674,"seq":72},{"type":"W","lat":41.86014,"lon":-87.63113,"pdist":64778.19732886794,"seq":73},{"type":"W","lat":41.85924,"lon":-87.63142,"pdist":65115.85122694086,"seq":74},{"type":"W","lat":41.85455,"lon":-87.63128,"pdist":66827.24586047628,"seq":75},{"type":"S","stopId":"train-red-Cermak_Chinatown","stopName":"Cermak-Chinatown","lat":41.853208889431954,"lon":-87.63097878800076,"pdist":67323.29921606327,"seq":76},{"type":"W","lat":41.85268,"lon":-87.63086,"pdist":67518.9261715903,"seq":77},{"type":"W","lat":41.85108,"lon":-87.63069,"pdist":68104.4517421457,"seq":78},{"type":"W","lat":41.84898,"lon":-87.63073,"pdist":68870.63562963442,"seq":79},{"type":"W","lat":41.84686,"lon":-87.63116,"pdist":69652.81676579807,"seq":80},{"type":"W","lat":41.84548,"lon":-87.63128,"pdist":70157.31350155115,"seq":81},{"type":"W","lat":41.83953,"lon":-87.63087,"pdist":72330.80759300663,"seq":82},{"type":"S","stopId":"train-red-Sox_35th","stopName":"Sox-35th","lat":41.83118974668756,"lon":-87.63065766857909,"pdist":75373.98582463483,"seq":83},{"type":"W","lat":41.81282,"lon":-87.63019,"pdist":82076.70948852212,"seq":84},{"type":"W","lat":41.81215,"lon":-87.63022,"pdist":82321.27010905845,"seq":85},{"type":"W","lat":41.81148,"lon":-87.63039,"pdist":82570.02714849781,"seq":86},{"type":"S","stopId":"train-red-47th__Red_","stopName":"47th (Red)","lat":41.81034843754286,"lon":-87.63102933278829,"pdist":83017.9473534232,"seq":87},{"type":"W","lat":41.80948,"lon":-87.63152,"pdist":83361.71160584896,"seq":88},{"type":"W","lat":41.80896,"lon":-87.6317,"pdist":83557.62679207309,"seq":89},{"type":"W","lat":41.80805,"lon":-87.63181,"pdist":83890.95119461812,"seq":90},{"type":"W","lat":41.8019,"lon":-87.63135,"pdist":86138.03413907721,"seq":91},{"type":"S","stopId":"train-red-Garfield__Red_","stopName":"Garfield (Red)","lat":41.795419533296524,"lon":-87.63119450538609,"pdist":88502.56926776472,"seq":92},{"type":"W","lat":41.78773,"lon":-87.63101,"pdist":91308.25787551148,"seq":93},{"type":"W","lat":41.78559,"lon":-87.63113,"pdist":92089.63926223307,"seq":94},{"type":"S","stopId":"train-red-63rd","stopName":"63rd","lat":41.78053957866179,"lon":-87.63097422401715,"pdist":93932.58462613692,"seq":95},{"type":"W","lat":41.77943,"lon":-87.63094,"pdist":94337.48012171994,"seq":96},{"type":"W","lat":41.77848,"lon":-87.63065,"pdist":94692.91858493914,"seq":97},{"type":"W","lat":41.7775,"lon":-87.63005,"pdist":95085.93585625298,"seq":98},{"type":"W","lat":41.77699,"lon":-87.62955,"pdist":95316.41330446904,"seq":99},{"type":"W","lat":41.77542,"lon":-87.62751,"pdist":96113.95789554037,"seq":100},{"type":"W","lat":41.77446,"lon":-87.6267,"pdist":96527.7434593859,"seq":101},{"type":"W","lat":41.7735,"lon":-87.6262,"pdist":96903.45568630485,"seq":102},{"type":"W","lat":41.77287,"lon":-87.62601,"pdist":97139.02949267397,"seq":103},{"type":"W","lat":41.77219,"lon":-87.62593,"pdist":97388.05521682047,"seq":104},{"type":"S","stopId":"train-red-69th","stopName":"69th","lat":41.768368463455964,"lon":-87.62580016936408,"pdist":98782.6479613118,"seq":105},{"type":"W","lat":41.76542,"lon":-87.6257,"pdist":99858.63027777048,"seq":106},{"type":"W","lat":41.75605,"lon":-87.62554,"pdist":103277.20304110889,"seq":107},{"type":"W","lat":41.7519,"lon":-87.62521,"pdist":104793.83747451875,"seq":108},{"type":"S","stopId":"train-red-79th","stopName":"79th","lat":41.750419055212284,"lon":-87.62516465277847,"pdist":105334.24599437449,"seq":109},{"type":"W","lat":41.73949,"lon":-87.62483,"pdist":109322.34507794239,"seq":110},{"type":"S","stopId":"train-red-87th","stopName":"87th","lat":41.735369847459545,"lon":-87.62473127045345,"pdist":110825.6695819314,"seq":111},{"type":"W","lat":41.72238,"lon":-87.62442,"pdist":115565.28924340096,"seq":112},{"type":"S","stopId":"train-red-95th_Dan_Ryan","stopName":"95th/Dan Ryan","lat":41.72238,"lon":-87.62442,"pdist":115565.28924340096,"seq":113}]}