{"pid":"train-red-fwd","direction":"Forward","lengthFt":115565.28940302655,"points":[{"type":"W","lat":42.01907,"lon":-87.6729,"pdist":0,"seq":1},{"type":"S","stopId":"train-red-Howard","stopName":"Howard","lat":42.01906065810984,"lon":-87.67288900160972,"pdist":4.527800649615561,"seq":2},{"type":"S","stopId":"train-red-Jarvis","stopName":"Jarvis","lat":42.0160017489307,"lon":-87.66928768791635,"pdist":1487.1111671044478,"seq":3},{"type":"W","lat":42.01422,"lon":-87.66719,"pdist":2350.684151182145,"seq":4},{"type":"W","lat":42.01356,"lon":-87.66664,"pdist":2633.8754388508137,"seq":5},{"type":"W","lat":42.01298,"lon":-87.6663,"pdist":2864.6653156810116,"seq":6},{"type":"W","lat":42.01228,"lon":-87.66606,"pdist":3128.1898952371466,"seq":7},{"type":"S","stopId":"train-red-Morse","stopName":"Morse","lat":42.0083607774425,"lon":-87.66587980585943,"pdist":4558.806357144284,"seq":8},{"type":"W","lat":42.00619,"lon":-87.66578,"pdist":5351.195638134035,"seq":9},{"type":"W","lat":42.00526,"lon":-87.66553,"pdist":5697.1740014437255,"seq":10},{"type":"W","lat":42.00467,"lon":-87.66528,"pdist":5922.831000972249,"seq":11},{"type":"W","lat":42.00382,"lon":-87.66477,"pdist":6262.3469949886485,"seq":12},{"type":"W","lat":42.00309,"lon":-87.66405,"pdist":6592.530286038693,"seq":13},{"type":"W","lat":42.00265,"lon":-87.66347,"pdist":6817.227972250449,"seq":14},{"type":"W","lat":42.00137,"lon":-87.66143,"pdist":7541.044203229505,"seq":15},{"type":"S","stopId":"train-red-Loyola","stopName":"Loyola","lat":42.001067147142,"lon":-87.661064216678,"pdist":7689.505112639248,"seq":16},{"type":"W","lat":42.0006,"lon":-87.6605,"pdist":7918.504402885967,"seq":17},{"type":"W","lat":41.9997,"lon":-87.65979,"pdist":8299.099594254983,"seq":18},{"type":"W","lat":41.9985,"lon":-87.65936,"pdist":8752.131311915313,"seq":19},{"type":"W","lat":41.99633,"lon":-87.65922,"pdist":9544.684413445768,"seq":20},{"type":"S","stopId":"train-red-Granville","stopName":"Granville","lat":41.99447995146076,"lon":-87.65921304493031,"pdist":10219.608346662675,"seq":21},{"type":"W","lat":41.99367,"lon":-87.65921,"pdist":10515.090121340229,"seq":22},{"type":"S","stopId":"train-red-Thorndale","stopName":"Thorndale","lat":41.99009970654319,"lon":-87.65908495040787,"pdist":11818.020024900634,"seq":23},{"type":"S","stopId":"train-red-Bryn_Mawr","stopName":"Bryn Mawr","lat":41.98349972939721,"lon":-87.65885378609039,"pdist":14226.591670435037,"seq":24},{"type":"W","lat":41.97968,"lon":-87.65872,"pdist":15620.549818508676,"seq":25},{"type":"S","stopId":"train-red-Berwyn","stopName":"Berwyn","lat":41.97797991124847,"lon":-87.6586761353176,"pdist":16240.877970385824,"seq":26},{"type":"S","stopId":"train-red-Argyle","stopName":"Argyle","lat":41.97331962543461,"lon":-87.65855589338494,"pdist":17941.322422786972,"seq":27},{"type":"S","stopId":"train-red-Lawrence","stopName":"Lawrence","lat":41.96898066625834,"lon":-87.65844394213175,"pdist":19524.52125547359,"seq":28},{"type":"W","lat":41.96689,"lon":-87.65839,"pdist":20287.363274785,"seq":29},{"type":"S","stopId":"train-red-Wilson","stopName":"Wilson","lat":41.96547545800183,"lon":-87.65795642390862,"pdist":20816.63863043557,"seq":30},{"type":"W","lat":41.96428,"lon":-87.65759,"pdist":21263.939919407832,"seq":31},{"type":"W","lat":41.96182,"lon":-87.657,"pdist":22175.53876762735,"seq":32},{"type":"W","lat":41.95417,"lon":-87.65672,"pdist":24967.389876317677,"seq":33},{"type":"W","lat":41.95381,"lon":-87.65635,"pdist":25132.692446356534,"seq":34},{"type":"S","stopId":"train-red-Sheridan","stopName":"Sheridan","lat":41.95375812594643,"lon":-87.65466779854832,"pdist":25589.475236793678,"seq":35},{"type":"W","lat":41.95374,"lon":-87.65408,"pdist":25749.085288755625,"seq":36},{"type":"W","lat":41.95365,"lon":-87.65386,"pdist":25817.2071587722,"seq":37},{"type":"W","lat":41.95344,"lon":-87.6537,"pdist":25905.261353918162,"seq":38},{"type":"W","lat":41.95246,"lon":-87.65363,"pdist":26263.28192284635,"seq":39},{"type":"S","stopId":"train-red-Addison__Red_","stopName":"Addison (Red)","lat":41.94732,"lon":-87.65363,"pdist":28138.419467933854,"seq":40},{"type":"W","lat":41.9469,"lon":-87.65363,"pdist":28291.64082375842,"seq":41},{"type":"W","lat":41.94448,"lon":-87.65352,"pdist":29174.992081686025,"seq":42},{"type":"W","lat":41.94422,"lon":-87.65343,"pdist":29272.936773787653,"seq":43},{"type":"W","lat":41.94318,"lon":-87.65337,"pdist":29652.691195465708,"seq":44},{"type":"W","lat":41.94218,"lon":-87.65346,"pdist":30018.320469311548,"seq":45},{"type":"S","stopId":"train-red-Belmont__Red_Brown_Purple_","stopName":"Belmont (Red/Brown/Purple)","lat":41.93974974367446,"lon":-87.6533978627644,"pdist":30905.06929631708,"seq":46},{"type":"W","lat":41.93866,"lon":-87.65337,"pdist":31302.69357772208,"seq":47},{"type":"W","lat":41.92871,"lon":-87.65297,"pdist":34934.2033565132,"seq":48},{"type":"S","stopId":"train-red-Fullerton","stopName":"Fullerton","lat":41.92530008259613,"lon":-87.65286521380577,"pdist":36178.50985027082,"seq":49},{"type":"W","lat":41.91309,"lon":-87.65249,"pdist":40634.06793693461,"seq":50},{"type":"S","stopId":"train-red-North_Clybourn","stopName":"North/Clybourn","lat":41.9106890816564,"lon":-87.6491428682044,"pdist":41896.20271707145,"seq":51},{"type":"W","lat":41.90393,"lon":-87.63972,"pdist":45449.37313749066,"seq":52},{"type":"W","lat":41.9038,"lon":-87.63896,"pdist":45661.10647315386,"seq":53},{"type":"S","stopId":"train-red-Clark_Division","stopName":"Clark/Division","lat":41.903905283977046,"lon":-87.63140963478897,"pdist":47711.525453021044,"seq":54},{"type":"W","lat":41.90394,"lon":-87.62892,"pdist":48387.62446036543,"seq":55},{"type":"W","lat":41.90376,"lon":-87.62867,"pdist":48482.06855976084,"seq":56},{"type":"W","lat":41.90317,"lon":-87.62863,"pdist":48697.581921714824,"seq":57},{"type":"W","lat":41.90213,"lon":-87.62835,"pdist":49084.52943188953,"seq":58},{"type":"S","stopId":"train-red-Chicago__Red_","stopName":"Chicago (Red)","lat":41.89666998549352,"lon":-87.62818083288388,"pdist":51076.94212517893,"seq":59},{"type":"S","stopId":"train-red-Grand__Red_","stopName":"Grand (Red)","lat":41.891669896966775,"lon":-87.62802591561115,"pdist":52901.5233303056,"seq":60},{"type":"S","stopId":"train-red-Lake__Subway_","stopName":"Lake (Subway)","lat":41.884809941230145,"lon":-87.62781337424752,"pdist":55404.78827014098,"seq":61},{"type":"S","stopId":"train-red-Monroe__Red_","stopName":"Monroe (Red)","lat":41.880740221502826,"lon":-87.62768728250384,"pdist":56889.86880119543,"seq":62},{"type":"S","stopId":"train-red-Jackson__Red_","stopName":"Jackson (Red)","lat":41.8781498776248,"lon":-87.627607026123,"pdist":57835.11061629189,"seq":63},{"type":"W","lat":41.87405,"lon":-87.62748,"pdist":59331.19605908644,"seq":64},{"type":"S","stopId":"train-red-Harrison","stopName":"Harrison","lat":41.874040000096436,"lon":-87.62747995859253,"pdist":59334.844168766365,"seq":65},{"type":"W","lat":41.86922,"lon":-87.62746,"pdist":61093.250027263326,"seq":66},{"type":"S","stopId":"train-red-Roosevelt","stopName":"Roosevelt","lat":41.867373866330105,"lon":-87.6274065405308,"pdist":61766.89971278167,"seq":67},{"type":"W","lat":41.86404,"lon":-87.62731,"pdist":62983.419427173445,"seq":68},{"type":"W","lat":41.86364,"lon":-87.6274,"pdist":63131.378988030265,"seq":69},{"type":"W","lat":41.86316,"lon":-87.62779,"pdist":63336.0516013422,"seq":70},{"type":"W","lat":41.86212,"lon":-87.62935,"pdist":63904.90115105651,"seq":71},{"type":"W","lat":41.86094,"lon":-87.63059,"pdist":64451.54310579895,"seq":72},{"type":"W","lat":41.86014,"lon":-87.63113,"pdist":64778.1974183434,"seq":73},{"type":"W","lat":41.85924,"lon":-87.63142,"pdist":65115.85131688271,"seq":74},{"type":"W","lat":41.85455,"lon":-87.63128,"pdist":66827.24595278202,"seq":75},{"type":"S","stopId":"train-red-Cermak_Chinatown","stopName":"Cermak-Chinatown","lat":41.85320888924159,"lon":-87.630978787958,"pdist":67323.29937946517,"seq":76},{"type":"W","lat":41.85268,"lon":-87.63086,"pdist":67518.92626485143,"seq":77},{"type":"W","lat":41.85108,"lon":-87.63069,"pdist":68104.4518362156,"seq":78},{"type":"W","lat":41.84898,"lon":-87.63073,"pdist":68870.63572476261,"seq":79},{"type":"W","lat":41.84686,"lon":-87.63116,"pdist":69652.81686200666,"seq":80},{"type":"W","lat":41.84548,"lon":-87.63128,"pdist":70157.31359845659,"seq":81},{"type":"W","lat":41.83953,"lon":-87.63087,"pdist":72330.80769291423,"seq":82},{"type":"S","stopId":"train-red-Sox_35th","stopName":"Sox-35th","lat":41.83118974664293,"lon":-87.63065766857795,"pdist":75373.9859450305,"seq":83},{"type":"W","lat":41.81282,"lon":-87.63019,"pdist":82076.70960189134,"seq":84},{"type":"W","lat":41.81215,"lon":-87.63022,"pdist":82321.27022276547,"seq":85},{"type":"W","lat":41.81148,"lon":-87.63039,"pdist":82570.02726254844,"seq":86},{"type":"S","stopId":"train-red-47th__Red_","stopName":"47th (Red)","lat":41.81034844179136,"lon":-87.63102933038789,"pdist":83017.94578635131,"seq":87},{"type":"W","lat":41.80948,"lon":-87.63152,"pdist":83361.7117209931,"seq":88},{"type":"W","lat":41.80896,"lon":-87.6317,"pdist":83557.62690748784,"seq":89},{"type":"W","lat":41.80805,"lon":-87.63181,"pdist":83890.95131049327,"seq":90},{"type":"W","lat":41.8019,"lon":-87.63135,"pdist":86138.03425805617,"seq":91},{"type":"S","stopId":"train-red-Garfield__Red_","stopName":"Garfield (Red)","lat":41.79541953321428,"lon":-87.63119450538412,"pdist":88502.569420018,"seq":92},{"type":"W","lat":41.78773,"lon":-87.63101,"pdist":91308.25800163185,"seq":93},{"type":"W","lat":41.78559,"lon":-87.63113,"pdist":92089.63938943273,"seq":94},{"type":"S","stopId":"train-red-63rd","stopName":"63rd","lat":41.78053957858755,"lon":-87.63097422401488,"pdist":93932.58478297267,"seq":95},{"type":"W","lat":41.77943,"lon":-87.63094,"pdist":94337.48025202444,"seq":96},{"type":"W","lat":41.77848,"lon":-87.63065,"pdist":94692.91871573459,"seq":97},{"type":"W","lat":41.7775,"lon":-87.63005,"pdist":95085.93598759129,"seq":98},{"type":"W","lat":41.77699,"lon":-87.62955,"pdist":95316.4134361257,"seq":99},{"type":"W","lat":41.77542,"lon":-87.62751,"pdist":96113.95802829864,"seq":100},{"type":"W","lat":41.77446,"lon":-87.6267,"pdist":96527.74359271572,"seq":101},{"type":"W","lat":41.7735,"lon":-87.6262,"pdist":96903.45582015361,"seq":102},{"type":"W","lat":41.77287,"lon":-87.62601,"pdist":97139.02962684812,"seq":103},{"type":"W","lat":41.77219,"lon":-87.62593,"pdist":97388.0553513386,"seq":104},{"type":"S","stopId":"train-red-69th","stopName":"69th","lat":41.76836846318529,"lon":-87.62580016935489,"pdist":98782.64819653354,"seq":105},{"type":"W","lat":41.76542,"lon":-87.6257,"pdist":99858.63041570112,"seq":106},{"type":"W","lat":41.75605,"lon":-87.62554,"pdist":103277.20318376146,"seq":107},{"type":"W","lat":41.7519,"lon":-87.62521,"pdist":104793.83761926618,"seq":108},{"type":"S","stopId":"train-red-79th","stopName":"79th","lat":41.75041905504583,"lon":-87.62516465277335,"pdist":105334.24620060908,"seq":109},{"type":"W","lat":41.73949,"lon":-87.62483,"pdist":109322.34522894486,"seq":110},{"type":"S","stopId":"train-red-87th","stopName":"87th","lat":41.735369847432665,"lon":-87.6247312704528,"pdist":110825.66974481827,"seq":111},{"type":"W","lat":41.72238,"lon":-87.62442,"pdist":115565.28940302655,"seq":112},{"type":"S","stopId":"train-red-95th_Dan_Ryan","stopName":"95th/Dan Ryan","lat":41.72238,"lon":-87.62442,"pdist":115565.28940302655,"seq":113}]}